[
    {
        "MAX_ROWS_PRIOR":234
    },
    {
        "lat":33.6890603,
        "lng":-78.8866943,
        "address":"Myrtle Beach,SC",
        "queryAddress":"Myrtle+Beach,SC",
        "response":"OK",
        "name":"Beach First\nNational Bank",
        "closingDate":"April 9, 2010"
    },
    {
        "lat":33.4483771,
        "lng":-112.0740373,
        "address":"Phoenix,AZ",
        "queryAddress":"Phoenix,AZ",
        "response":"OK",
        "name":"Desert Hills\nBank",
        "closingDate":"March 26, 2010"
    },
    {
        "lat":34.1650972,
        "lng":-84.7999382,
        "address":"Cartersville,GA",
        "queryAddress":"Cartersville,GA",
        "response":"OK",
        "name":"Unity National\nBank",
        "closingDate":"March 26, 2010"
    },
    {
        "lat":24.5557025,
        "lng":-81.7825914,
        "address":"Key West,FL",
        "queryAddress":"Key+West,FL",
        "response":"OK",
        "name":"Key West\nBank",
        "closingDate":"March 26, 2010"
    },
    {
        "lat":33.5801103,
        "lng":-85.0766113,
        "address":"Carrollton,GA",
        "queryAddress":"Carrollton,GA",
        "response":"OK",
        "name":"McIntosh\nCommercial Bank",
        "closingDate":"March 26, 2010"
    },
    {
        "lat":47.5299252,
        "lng":-92.2371208,
        "address":"Aurora,MN",
        "queryAddress":"Aurora,MN",
        "response":"OK",
        "name":"State Bank of\nAurora",
        "closingDate":"March 19, 2010"
    },
    {
        "lat":31.9845929,
        "lng":-86.5785856,
        "address":"Fort Deposit,AL",
        "queryAddress":"Fort+Deposit,AL",
        "response":"OK",
        "name":"First Lowndes\nBank",
        "closingDate":"March 19, 2010"
    },
    {
        "lat":34.9492586,
        "lng":-83.7573948,
        "address":"Hiawassee,GA",
        "queryAddress":"Hiawassee,GA",
        "response":"OK",
        "name":"Bank of\nHiawassee",
        "closingDate":"March 19, 2010"
    },
    {
        "lat":34.6948076,
        "lng":-84.4821498,
        "address":"Ellijay,GA",
        "queryAddress":"Ellijay,GA",
        "response":"OK",
        "name":"Appalachian\nCommunity Bank",
        "closingDate":"March 19, 2010"
    },
    {
        "lat":40.5246711,
        "lng":-111.8638226,
        "address":"Draper,UT",
        "queryAddress":"Draper,UT",
        "response":"OK",
        "name":"Advanta Bank\nCorp.",
        "closingDate":"March 19, 2010"
    },
    {
        "lat":34.0028786,
        "lng":-84.1446376,
        "address":"Duluth,GA",
        "queryAddress":"Duluth,GA",
        "response":"OK",
        "name":"Century\nSecurity Bank",
        "closingDate":"March 19, 2010"
    },
    {
        "lat":41.4047742,
        "lng":-81.7229086,
        "address":"Parma,OH",
        "queryAddress":"Parma,OH",
        "response":"OK",
        "name":"American\nNational Bank",
        "closingDate":"March 19, 2010"
    },
    {
        "lat":30.4754702,
        "lng":-90.1009108,
        "address":"Covington,LA",
        "queryAddress":"Covington,LA",
        "response":"OK",
        "name":"Statewide\nBank",
        "closingDate":"March 12, 2010"
    },
    {
        "lat":28.5383355,
        "lng":-81.3792365,
        "address":"Orlando,FL",
        "queryAddress":"Orlando,FL",
        "response":"OK",
        "name":"Old Southern\nBank",
        "closingDate":"March 12, 2010"
    },
    {
        "lat":40.7142691,
        "lng":-74.0059729,
        "address":"New York,NY",
        "queryAddress":"New+York,NY",
        "response":"OK",
        "name":"The Park\nAvenue Bank",
        "closingDate":"March 12, 2010"
    },
    {
        "lat":40.7142691,
        "lng":-74.0059729,
        "address":"New York,NY",
        "queryAddress":"New+York,NY",
        "response":"OK",
        "name":"LibertyPointe Bank",
        "closingDate":"March 11, 2010"
    },
    {
        "lat":41.223,
        "lng":-111.9738304,
        "address":"Ogden,UT",
        "queryAddress":"Ogden,UT",
        "response":"OK",
        "name":"Centennial\nBank",
        "closingDate":"March 5, 2010"
    },
    {
        "lat":39.1731621,
        "lng":-77.2716502,
        "address":"Germantown,MD",
        "queryAddress":"Germantown,MD",
        "response":"OK",
        "name":"Waterfield\nBank",
        "closingDate":"March 5, 2010"
    },
    {
        "lat":40.5142026,
        "lng":-88.9906312,
        "address":"Normal,IL",
        "queryAddress":"Normal,IL",
        "response":"OK",
        "name":"Bank of\nIllinois",
        "closingDate":"March 5, 2010"
    },
    {
        "lat":26.3586885,
        "lng":-80.0830984,
        "address":"Boca Raton,FL",
        "queryAddress":"Boca+Raton,FL",
        "response":"OK",
        "name":"Sun American\nBank",
        "closingDate":"March 5, 2010"
    },
    {
        "lat":47.2528768,
        "lng":-122.4442906,
        "address":"Tacoma,WA",
        "queryAddress":"Tacoma,WA",
        "response":"OK",
        "name":"Rainier Pacific\nBank",
        "closingDate":"February 26, 2010"
    },
    {
        "lat":39.1637984,
        "lng":-119.7674034,
        "address":"Carson City,NV",
        "queryAddress":"Carson+City,NV",
        "response":"OK",
        "name":"Carson River\nCommunity Bank",
        "closingDate":"February 26, 2010"
    },
    {
        "lat":33.8575,
        "lng":-117.87556,
        "address":"La Jolla,CA",
        "queryAddress":"La+Jolla,CA",
        "response":"OK",
        "name":"La Jolla Bank,\nFSB",
        "closingDate":"February 19, 2010"
    },
    {
        "lat":41.6303103,
        "lng":-87.8539425,
        "address":"Orland Park,IL",
        "queryAddress":"Orland+Park,IL",
        "response":"OK",
        "name":"George\nWashington Savings Bank",
        "closingDate":"February 19, 2010"
    },
    {
        "lat":29.3107917,
        "lng":-98.8100253,
        "address":"La Coste,TX",
        "queryAddress":"La+Coste,TX",
        "response":"OK",
        "name":"The La Coste\nNational Bank",
        "closingDate":"February 19, 2010"
    },
    {
        "lat":25.9405556,
        "lng":-81.7147222,
        "address":"Marco Island,FL",
        "queryAddress":"Marco+Island,FL",
        "response":"OK",
        "name":"Marco Community\nBank",
        "closingDate":"February 19, 2010"
    },
    {
        "lat":45.4975,
        "lng":-95.7966667,
        "address":"Hancock,MN",
        "queryAddress":"Hancock,MN",
        "response":"OK",
        "name":"1st American\nState Bank of Minnesota",
        "closingDate":"February 5, 2010"
    },
    {
        "lat":47.6262081,
        "lng":-122.5212448,
        "address":"Bainbridge Island,WA",
        "queryAddress":"Bainbridge+Island,WA",
        "response":"OK",
        "name":"American\nMarine Bank",
        "closingDate":"January 29, 2010"
    },
    {
        "lat":34.0522342,
        "lng":-118.2436849,
        "address":"Los Angeles,CA",
        "queryAddress":"Los+Angeles,CA",
        "response":"OK",
        "name":"First\nRegional Bank",
        "closingDate":"January 29, 2010"
    },
    {
        "lat":34.5114883,
        "lng":-83.5271166,
        "address":"Cornelia,GA",
        "queryAddress":"Cornelia,GA",
        "response":"OK",
        "name":"Community\nBank and Trust",
        "closingDate":"January 29, 2010"
    },
    {
        "lat":48.7744263,
        "lng":-96.946447,
        "address":"Hallock,MN",
        "queryAddress":"Hallock,MN",
        "response":"OK",
        "name":"Marshall Bank,\nN.A.",
        "closingDate":"January 29, 2010"
    },
    {
        "lat":26.4186898,
        "lng":-81.4172993,
        "address":"Immokalee,FL",
        "queryAddress":"Immokalee,FL",
        "response":"OK",
        "name":"Florida\nCommunity Bank",
        "closingDate":"January 29, 2010"
    },
    {
        "lat":33.5801103,
        "lng":-85.0766113,
        "address":"Carrollton,GA",
        "queryAddress":"Carrollton,GA",
        "response":"OK",
        "name":"First National Bank of\nGeorgia",
        "closingDate":"January 29, 2010"
    },
    {
        "lat":45.5945645,
        "lng":-121.1786823,
        "address":"The Dalles,OR",
        "queryAddress":"The+Dalles,OR",
        "response":"OK",
        "name":"Columbia\nRiver Bank",
        "closingDate":"January 22, 2010"
    },
    {
        "lat":47.6062095,
        "lng":-122.3320708,
        "address":"Seattle,WA",
        "queryAddress":"Seattle,WA",
        "response":"OK",
        "name":"Evergreen\nBank",
        "closingDate":"January 22, 2010"
    },
    {
        "lat":35.6869752,
        "lng":-105.937799,
        "address":"Santa Fe,NM",
        "queryAddress":"Santa+Fe,NM",
        "response":"OK",
        "name":"Charter\nBank",
        "closingDate":"January 22, 2010"
    },
    {
        "lat":38.5830717,
        "lng":-93.694658,
        "address":"Leeton,MO",
        "queryAddress":"Leeton,MO",
        "response":"OK",
        "name":"Bank of\nLeeton",
        "closingDate":"January 22, 2010"
    },
    {
        "lat":25.7742657,
        "lng":-80.1936589,
        "address":"Miami,FL",
        "queryAddress":"Miami,FL",
        "response":"OK",
        "name":"Premier\nAmerican Bank",
        "closingDate":"January 22, 2010"
    },
    {
        "lat":41.0352216,
        "lng":-111.9385521,
        "address":"Kaysville,UT",
        "queryAddress":"Kaysville,UT",
        "response":"OK",
        "name":"Barnes Banking\nCompany",
        "closingDate":"January 15, 2010"
    },
    {
        "lat":45.702743,
        "lng":-94.2744404,
        "address":"St. Stephen,MN",
        "queryAddress":"St.+Stephen,MN",
        "response":"OK",
        "name":"St. Stephen\nState Bank",
        "closingDate":"January 15, 2010"
    },
    {
        "lat":42.4772418,
        "lng":-88.0956396,
        "address":"Antioch,IL",
        "queryAddress":"Antioch,IL",
        "response":"OK",
        "name":"Town\nCommunity Bank & Trust",
        "closingDate":"January 15, 2010"
    },
    {
        "lat":48.7595529,
        "lng":-122.4882249,
        "address":"Bellingham,WA",
        "queryAddress":"Bellingham,WA",
        "response":"OK",
        "name":"Horizon Bank",
        "closingDate":"January 8, 2010"
    },
    {
        "lat":34.0194543,
        "lng":-118.4911912,
        "address":"Santa Monica,CA",
        "queryAddress":"Santa+Monica,CA",
        "response":"OK",
        "name":"First Federal Bank of California,\nF.S.B.",
        "closingDate":"December 18, 2009"
    },
    {
        "lat":33.8575,
        "lng":-117.87556,
        "address":"La Jolla,CA",
        "queryAddress":"La+Jolla,CA",
        "response":"OK",
        "name":"Imperial Capital Bank",
        "closingDate":"December 18, 2009"
    },
    {
        "lat":39.8017171,
        "lng":-89.6437107,
        "address":"Springfield,IL",
        "queryAddress":"Springfield,IL",
        "response":"OK",
        "name":"Independent Bankers' Bank",
        "closingDate":"December 18, 2009"
    },
    {
        "lat":33.5381601,
        "lng":-86.7072102,
        "address":"Irondale,AL",
        "queryAddress":"Irondale,AL",
        "response":"OK",
        "name":"New\nSouth Federal Savings Bank",
        "closingDate":"December 18, 2009"
    },
    {
        "lat":42.6811436,
        "lng":-82.7368616,
        "address":"New Baltimore,MI",
        "queryAddress":"New+Baltimore,MI",
        "response":"OK",
        "name":"Citizens State Bank",
        "closingDate":"December 18, 2009"
    },
    {
        "lat":30.1588129,
        "lng":-85.6602058,
        "address":"Panama City,FL",
        "queryAddress":"Panama+City,FL",
        "response":"OK",
        "name":"Peoples First Community Bank",
        "closingDate":"December 18, 2009"
    },
    {
        "lat":33.7489954,
        "lng":-84.3879824,
        "address":"Atlanta,GA",
        "queryAddress":"Atlanta,GA",
        "response":"OK",
        "name":"RockBridge Commercial Bank",
        "closingDate":"December 18, 2009"
    },
    {
        "lat":38.9822282,
        "lng":-94.6707917,
        "address":"Overland Park,KS",
        "queryAddress":"Overland+Park,KS",
        "response":"OK",
        "name":"SolutionsBank",
        "closingDate":"December 11, 2009"
    },
    {
        "lat":33.4222685,
        "lng":-111.8226402,
        "address":"Mesa,AZ",
        "queryAddress":"Mesa,AZ",
        "response":"OK",
        "name":"Valley Capital Bank, N.A.",
        "closingDate":"December 11, 2009"
    },
    {
        "lat":25.7742657,
        "lng":-80.1936589,
        "address":"Miami,FL",
        "queryAddress":"Miami,FL",
        "response":"OK",
        "name":"Republic Federal Bank, N.A.",
        "closingDate":"December 11, 2009"
    },
    {
        "lat":38.9687213,
        "lng":-77.3410958,
        "address":"Reston,VA",
        "queryAddress":"Reston,VA",
        "response":"OK",
        "name":"Greater Atlantic Bank",
        "closingDate":"December 4, 2009"
    },
    {
        "lat":41.7605849,
        "lng":-88.3200715,
        "address":"Aurora,IL",
        "queryAddress":"Aurora,IL",
        "response":"OK",
        "name":"Benchmark Bank",
        "closingDate":"December 4, 2009"
    },
    {
        "lat":41.4994954,
        "lng":-81.6954088,
        "address":"Cleveland,OH",
        "queryAddress":"Cleveland,OH",
        "response":"OK",
        "name":"AmTrust Bank",
        "closingDate":"December 4, 2009"
    },
    {
        "lat":32.0868611,
        "lng":-82.1178978,
        "address":"Reidsville,GA",
        "queryAddress":"Reidsville,GA",
        "response":"OK",
        "name":"The\nTattnall Bank",
        "closingDate":"December 4, 2009"
    },
    {
        "lat":33.9412127,
        "lng":-84.2135309,
        "address":"Norcross,GA",
        "queryAddress":"Norcross,GA",
        "response":"OK",
        "name":"First Security National Bank",
        "closingDate":"December 4, 2009"
    },
    {
        "lat":33.7489954,
        "lng":-84.3879824,
        "address":"Atlanta,GA",
        "queryAddress":"Atlanta,GA",
        "response":"OK",
        "name":"The Buckhead Community Bank",
        "closingDate":"December 4, 2009"
    },
    {
        "lat":26.640628,
        "lng":-81.8723084,
        "address":"Fort Myers,FL",
        "queryAddress":"Fort+Myers,FL",
        "response":"OK",
        "name":"Commerce Bank of Southwest\nFlorida",
        "closingDate":"November 20, 2009"
    },
    {
        "lat":33.4269728,
        "lng":-117.6119925,
        "address":"San Clemente,CA",
        "queryAddress":"San+Clemente,CA",
        "response":"OK",
        "name":"Pacific Coast National Bank",
        "closingDate":"November 13, 2009"
    },
    {
        "lat":26.1530556,
        "lng":-81.7986111,
        "address":"Naples,FL",
        "queryAddress":"Naples,FL",
        "response":"OK",
        "name":"Orion\nBank",
        "closingDate":"November 13, 2009"
    },
    {
        "lat":27.3364347,
        "lng":-82.5306527,
        "address":"Sarasota,FL",
        "queryAddress":"Sarasota,FL",
        "response":"OK",
        "name":"Century Bank, F.S.B.",
        "closingDate":"November 13, 2009"
    },
    {
        "lat":37.7749295,
        "lng":-122.4194155,
        "address":"San Francisco,CA",
        "queryAddress":"San+Francisco,CA",
        "response":"OK",
        "name":"United\nCommercial Bank",
        "closingDate":"November 6, 2009"
    },
    {
        "lat":38.646991,
        "lng":-90.224967,
        "address":"St. Louis,MO",
        "queryAddress":"St.+Louis,MO",
        "response":"OK",
        "name":"Gateway Bank of St. Louis",
        "closingDate":"November 6, 2009"
    },
    {
        "lat":44.9630216,
        "lng":-92.9649361,
        "address":"Oakdale,MN",
        "queryAddress":"Oakdale,MN",
        "response":"OK",
        "name":"Prosperan Bank",
        "closingDate":"November 6, 2009"
    },
    {
        "lat":42.331427,
        "lng":-83.0457538,
        "address":"Detroit,MI",
        "queryAddress":"Detroit,MI",
        "response":"OK",
        "name":"Home Federal Savings Bank",
        "closingDate":"November 6, 2009"
    },
    {
        "lat":33.2757006,
        "lng":-82.9762589,
        "address":"Sparta,GA",
        "queryAddress":"Sparta,GA",
        "response":"OK",
        "name":"United Security Bank",
        "closingDate":"November 6, 2009"
    },
    {
        "lat":29.7632836,
        "lng":-95.3632715,
        "address":"Houston,TX",
        "queryAddress":"Houston,TX",
        "response":"OK",
        "name":"North Houston Bank",
        "closingDate":"October 30, 2009"
    },
    {
        "lat":30.9499111,
        "lng":-95.9116188,
        "address":"Madisonville,TX",
        "queryAddress":"Madisonville,TX",
        "response":"OK",
        "name":"Madisonville State Bank",
        "closingDate":"October 30, 2009"
    },
    {
        "lat":31.6271145,
        "lng":-96.283862,
        "address":"Teague,TX",
        "queryAddress":"Teague,TX",
        "response":"OK",
        "name":"Citizens National Bank",
        "closingDate":"October 30, 2009"
    },
    {
        "lat":41.850033,
        "lng":-87.6500523,
        "address":"Chicago,IL",
        "queryAddress":"Chicago,IL",
        "response":"OK",
        "name":"Park\nNational Bank",
        "closingDate":"October 30, 2009"
    },
    {
        "lat":37.7749295,
        "lng":-122.4194155,
        "address":"San Francisco,CA",
        "queryAddress":"San+Francisco,CA",
        "response":"OK",
        "name":"Pacific National Bank",
        "closingDate":"October 30, 2009"
    },
    {
        "lat":34.0522342,
        "lng":-118.2436849,
        "address":"Los Angeles,CA",
        "queryAddress":"Los+Angeles,CA",
        "response":"OK",
        "name":"California National Bank",
        "closingDate":"October 30, 2009"
    },
    {
        "lat":32.7153292,
        "lng":-117.1572551,
        "address":"San Diego,CA",
        "queryAddress":"San+Diego,CA",
        "response":"OK",
        "name":"San Diego National Bank",
        "closingDate":"October 30, 2009"
    },
    {
        "lat":41.673642,
        "lng":-88.0017261,
        "address":"Lemont,IL",
        "queryAddress":"Lemont,IL",
        "response":"OK",
        "name":"Community Bank of Lemont",
        "closingDate":"October 30, 2009"
    },
    {
        "lat":33.4483771,
        "lng":-112.0740373,
        "address":"Phoenix,AZ",
        "queryAddress":"Phoenix,AZ",
        "response":"OK",
        "name":"Bank USA, N.A",
        "closingDate":"October 30, 2009"
    },
    {
        "lat":41.7958639,
        "lng":-87.9756175,
        "address":"Westmont,IL",
        "queryAddress":"Westmont,IL",
        "response":"OK",
        "name":"First DuPage Bank",
        "closingDate":"October 23, 2009"
    },
    {
        "lat":45.2741314,
        "lng":-93.5913501,
        "address":"Otsego,MN",
        "queryAddress":"Otsego,MN",
        "response":"OK",
        "name":"Riverview Community Bank",
        "closingDate":"October 23, 2009"
    },
    {
        "lat":42.7261309,
        "lng":-87.7828523,
        "address":"Racine,WI",
        "queryAddress":"Racine,WI",
        "response":"OK",
        "name":"Bank\nof Elmwood",
        "closingDate":"October 23, 2009"
    },
    {
        "lat":27.4989278,
        "lng":-82.5748194,
        "address":"Bradenton,FL",
        "queryAddress":"Bradenton,FL",
        "response":"OK",
        "name":"Flagship National Bank",
        "closingDate":"October 23, 2009"
    },
    {
        "lat":26.1530556,
        "lng":-81.7986111,
        "address":"Naples,FL",
        "queryAddress":"Naples,FL",
        "response":"OK",
        "name":"Hillcrest Bank Florida",
        "closingDate":"October 23, 2009"
    },
    {
        "lat":33.9562149,
        "lng":-83.9879625,
        "address":"Lawrenceville,GA",
        "queryAddress":"Lawrenceville,GA",
        "response":"OK",
        "name":"American United Bank",
        "closingDate":"October 23, 2009"
    },
    {
        "lat":26.1530556,
        "lng":-81.7986111,
        "address":"Naples,FL",
        "queryAddress":"Naples,FL",
        "response":"OK",
        "name":"Partners Bank",
        "closingDate":"October 23, 2009"
    },
    {
        "lat":35.3732921,
        "lng":-119.0187125,
        "address":"Bakersfield,CA",
        "queryAddress":"Bakersfield,CA",
        "response":"OK",
        "name":"San\nJoaquin Bank",
        "closingDate":"October 16, 2009"
    },
    {
        "lat":38.2544472,
        "lng":-104.6091409,
        "address":"Pueblo,CO",
        "queryAddress":"Pueblo,CO",
        "response":"OK",
        "name":"Southern Colorado National Bank",
        "closingDate":"October 2, 2009"
    },
    {
        "lat":43.5610799,
        "lng":-91.6359787,
        "address":"Spring Grove,MN",
        "queryAddress":"Spring+Grove,MN",
        "response":"OK",
        "name":"Jennings State Bank",
        "closingDate":"October 2, 2009"
    },
    {
        "lat":42.493,
        "lng":-83.028197,
        "address":"Warren,MI",
        "queryAddress":"Warren,MI",
        "response":"OK",
        "name":"Warren Bank",
        "closingDate":"October 2, 2009"
    },
    {
        "lat":33.7489954,
        "lng":-84.3879824,
        "address":"Atlanta,GA",
        "queryAddress":"Atlanta,GA",
        "response":"OK",
        "name":"Georgian Bank",
        "closingDate":"September 25, 2009"
    },
    {
        "lat":38.2541667,
        "lng":-85.7602778,
        "address":"Louisville,KY",
        "queryAddress":"Louisville,KY",
        "response":"OK",
        "name":"Irwin\nUnion Bank, F.S.B.",
        "closingDate":"September 18, 2009"
    },
    {
        "lat":39.2014404,
        "lng":-85.9213796,
        "address":"Columbus,IN",
        "queryAddress":"Columbus,IN",
        "response":"OK",
        "name":"Irwin\nUnion Bank and Trust Company",
        "closingDate":"September 18, 2009"
    },
    {
        "lat":47.0342629,
        "lng":-122.8231915,
        "address":"Lacey,WA",
        "queryAddress":"Lacey,WA",
        "response":"OK",
        "name":"Venture Bank",
        "closingDate":"September 11, 2009"
    },
    {
        "lat":44.9238552,
        "lng":-92.9593797,
        "address":"Woodbury,MN",
        "queryAddress":"Woodbury,MN",
        "response":"OK",
        "name":"Brickwell Community Bank",
        "closingDate":"September 11, 2009"
    },
    {
        "lat":41.850033,
        "lng":-87.6500523,
        "address":"Chicago,IL",
        "queryAddress":"Chicago,IL",
        "response":"OK",
        "name":"Corus\nBank, N.A.",
        "closingDate":"September 11, 2009"
    },
    {
        "lat":35.1980671,
        "lng":-111.6512725,
        "address":"Flagstaff,AZ",
        "queryAddress":"Flagstaff,AZ",
        "response":"OK",
        "name":"First State Bank",
        "closingDate":"September 4, 2009"
    },
    {
        "lat":42.0841936,
        "lng":-88.0131275,
        "address":"Rolling Meadows,IL",
        "queryAddress":"Rolling+Meadows,IL",
        "response":"OK",
        "name":"Platinum Community Bank",
        "closingDate":"September 4, 2009"
    },
    {
        "lat":42.4999942,
        "lng":-96.4003069,
        "address":"Sioux City,IA",
        "queryAddress":"Sioux+City,IA",
        "response":"OK",
        "name":"Vantus\nBank",
        "closingDate":"September 4, 2009"
    },
    {
        "lat":41.6028116,
        "lng":-87.7439384,
        "address":"Oak Forest,IL",
        "queryAddress":"Oak+Forest,IL",
        "response":"OK",
        "name":"InBank",
        "closingDate":"September 4, 2009"
    },
    {
        "lat":39.0997265,
        "lng":-94.5785667,
        "address":"Kansas City,MO",
        "queryAddress":"Kansas+City,MO",
        "response":"OK",
        "name":"First Bank of Kansas City",
        "closingDate":"September 4, 2009"
    },
    {
        "lat":34.275242,
        "lng":-119.228048,
        "address":"Ventura,CA",
        "queryAddress":"Ventura,CA",
        "response":"OK",
        "name":"Affinity Bank",
        "closingDate":"August 28, 2009"
    },
    {
        "lat":45.2788561,
        "lng":-92.9852183,
        "address":"Forest Lake,MN",
        "queryAddress":"Forest+Lake,MN",
        "response":"OK",
        "name":"Mainstreet Bank",
        "closingDate":"August 28, 2009"
    },
    {
        "lat":39.2903848,
        "lng":-76.6121893,
        "address":"Baltimore,MD",
        "queryAddress":"Baltimore,MD",
        "response":"OK",
        "name":"Bradford Bank",
        "closingDate":"August 28, 2009"
    },
    {
        "lat":30.267153,
        "lng":-97.7430608,
        "address":"Austin,TX",
        "queryAddress":"Austin,TX",
        "response":"OK",
        "name":"Guaranty Bank",
        "closingDate":"August 21, 2009"
    },
    {
        "lat":33.5206608,
        "lng":-86.80249,
        "address":"Birmingham,AL",
        "queryAddress":"Birmingham,AL",
        "response":"OK",
        "name":"CapitalSouth Bank",
        "closingDate":"August 21, 2009"
    },
    {
        "lat":33.3806716,
        "lng":-84.7996573,
        "address":"Newnan,GA",
        "queryAddress":"Newnan,GA",
        "response":"OK",
        "name":"First\nCoweta Bank",
        "closingDate":"August 21, 2009"
    },
    {
        "lat":33.7489954,
        "lng":-84.3879824,
        "address":"Atlanta,GA",
        "queryAddress":"Atlanta,GA",
        "response":"OK",
        "name":"ebank",
        "closingDate":"August 21, 2009"
    },
    {
        "lat":36.114646,
        "lng":-115.172816,
        "address":"Las Vegas,NV",
        "queryAddress":"Las+Vegas,NV",
        "response":"OK",
        "name":"Community Bank of Nevada",
        "closingDate":"August 14, 2009"
    },
    {
        "lat":33.4483771,
        "lng":-112.0740373,
        "address":"Phoenix,AZ",
        "queryAddress":"Phoenix,AZ",
        "response":"OK",
        "name":"Community Bank of Arizona",
        "closingDate":"August 14, 2009"
    },
    {
        "lat":33.3528264,
        "lng":-111.789027,
        "address":"Gilbert,AZ",
        "queryAddress":"Gilbert,AZ",
        "response":"OK",
        "name":"Union\nBank, National Association",
        "closingDate":"August 14, 2009"
    },
    {
        "lat":32.3668052,
        "lng":-86.2999689,
        "address":"Montgomery,AL",
        "queryAddress":"Montgomery,AL",
        "response":"OK",
        "name":"Colonial Bank",
        "closingDate":"August 14, 2009"
    },
    {
        "lat":40.4406248,
        "lng":-79.9958864,
        "address":"Pittsburgh,PA",
        "queryAddress":"Pittsburgh,PA",
        "response":"OK",
        "name":"Dwelling House Savings and Loan\nAssociation",
        "closingDate":"August 14, 2009"
    },
    {
        "lat":44.2998485,
        "lng":-120.8344664,
        "address":"Prineville,OR",
        "queryAddress":"Prineville,OR",
        "response":"OK",
        "name":"Community First Bank",
        "closingDate":"August 7, 2009"
    },
    {
        "lat":27.0997775,
        "lng":-82.4542632,
        "address":"Venice,FL",
        "queryAddress":"Venice,FL",
        "response":"OK",
        "name":"Community National Bank of Sarasota\nCounty",
        "closingDate":"August 7, 2009"
    },
    {
        "lat":27.3364347,
        "lng":-82.5306527,
        "address":"Sarasota,FL",
        "queryAddress":"Sarasota,FL",
        "response":"OK",
        "name":"First State Bank",
        "closingDate":"August 7, 2009"
    },
    {
        "lat":41.6100344,
        "lng":-87.6467131,
        "address":"Harvey,IL",
        "queryAddress":"Harvey,IL",
        "response":"OK",
        "name":"Mutual Bank",
        "closingDate":"July 31, 2009"
    },
    {
        "lat":40.6639916,
        "lng":-74.2107006,
        "address":"Elizabeth,NJ",
        "queryAddress":"Elizabeth,NJ",
        "response":"OK",
        "name":"First BankAmericano",
        "closingDate":"July 31, 2009"
    },
    {
        "lat":39.3303357,
        "lng":-84.408275,
        "address":"West Chester,OH",
        "queryAddress":"West+Chester,OH",
        "response":"OK",
        "name":"Peoples Community Bank",
        "closingDate":"July 31, 2009"
    },
    {
        "lat":26.9342246,
        "lng":-80.0942087,
        "address":"Jupiter,FL",
        "queryAddress":"Jupiter,FL",
        "response":"OK",
        "name":"Integrity Bank",
        "closingDate":"July 31, 2009"
    },
    {
        "lat":34.6381255,
        "lng":-99.3339754,
        "address":"Altus,OK",
        "queryAddress":"Altus,OK",
        "response":"OK",
        "name":"First State Bank of Altus",
        "closingDate":"July 31, 2009"
    },
    {
        "lat":33.0095802,
        "lng":-83.5337816,
        "address":"Gray,GA",
        "queryAddress":"Gray,GA",
        "response":"OK",
        "name":"Security Bank of Jones County",
        "closingDate":"July 24, 2009"
    },
    {
        "lat":32.4582065,
        "lng":-83.7315723,
        "address":"Perry,GA",
        "queryAddress":"Perry,GA",
        "response":"OK",
        "name":"Security Bank of Houston County",
        "closingDate":"July 24, 2009"
    },
    {
        "lat":32.8406946,
        "lng":-83.6324022,
        "address":"Macon,GA",
        "queryAddress":"Macon,GA",
        "response":"OK",
        "name":"Security Bank of Bibb County",
        "closingDate":"July 24, 2009"
    },
    {
        "lat":34.1014873,
        "lng":-84.5193754,
        "address":"Woodstock,GA",
        "queryAddress":"Woodstock,GA",
        "response":"OK",
        "name":"Security Bank of North Metro",
        "closingDate":"July 24, 2009"
    },
    {
        "lat":34.0753762,
        "lng":-84.2940899,
        "address":"Alpharetta,GA",
        "queryAddress":"Alpharetta,GA",
        "response":"OK",
        "name":"Security Bank of North Fulton",
        "closingDate":"July 24, 2009"
    },
    {
        "lat":34.0514898,
        "lng":-84.0712997,
        "address":"Suwanee,GA",
        "queryAddress":"Suwanee,GA",
        "response":"OK",
        "name":"Security Bank of Gwinnett County",
        "closingDate":"July 24, 2009"
    },
    {
        "lat":42.963947,
        "lng":-78.7378091,
        "address":"Williamsville,NY",
        "queryAddress":"Williamsville,NY",
        "response":"OK",
        "name":"Waterford Village Bank",
        "closingDate":"July 24, 2009"
    },
    {
        "lat":33.4936391,
        "lng":-117.1483648,
        "address":"Temecula,CA",
        "queryAddress":"Temecula,CA",
        "response":"OK",
        "name":"Temecula Valley Bank",
        "closingDate":"July 17, 2009"
    },
    {
        "lat":34.1063989,
        "lng":-117.5931084,
        "address":"Rancho Cucamonga,CA",
        "queryAddress":"Rancho+Cucamonga,CA",
        "response":"OK",
        "name":"Vineyard Bank",
        "closingDate":"July 17, 2009"
    },
    {
        "lat":43.5499749,
        "lng":-96.700327,
        "address":"Sioux Falls,SD",
        "queryAddress":"Sioux+Falls,SD",
        "response":"OK",
        "name":"BankFirst",
        "closingDate":"July 17, 2009"
    },
    {
        "lat":33.9926097,
        "lng":-83.7201709,
        "address":"Winder,GA",
        "queryAddress":"Winder,GA",
        "response":"OK",
        "name":"First\nPiedmont Bank",
        "closingDate":"July 17, 2009"
    },
    {
        "lat":43.6460672,
        "lng":-108.2120432,
        "address":"Thermopolis,WY",
        "queryAddress":"Thermopolis,WY",
        "response":"OK",
        "name":"Bank\nof Wyoming",
        "closingDate":"July 10, 2009"
    },
    {
        "lat":41.6897548,
        "lng":-87.7972754,
        "address":"Worth,IL",
        "queryAddress":"Worth,IL",
        "response":"OK",
        "name":"Founders Bank",
        "closingDate":"July 2, 2009"
    },
    {
        "lat":32.802955,
        "lng":-96.769923,
        "address":"Dallas,TX",
        "queryAddress":"Dallas,TX",
        "response":"OK",
        "name":"Millennium State Bank of Texas",
        "closingDate":"July 2, 2009"
    },
    {
        "lat":40.124481,
        "lng":-87.6300207,
        "address":"Danville,IL",
        "queryAddress":"Danville,IL",
        "response":"OK",
        "name":"First\nNational Bank of Danville",
        "closingDate":"July 2, 2009"
    },
    {
        "lat":42.3177911,
        "lng":-90.221517,
        "address":"Elizabeth,IL",
        "queryAddress":"Elizabeth,IL",
        "response":"OK",
        "name":"Elizabeth State Bank",
        "closingDate":"July 2, 2009"
    },
    {
        "lat":42.0147513,
        "lng":-89.3323279,
        "address":"Oregon,IL",
        "queryAddress":"Oregon,IL",
        "response":"OK",
        "name":"Rock\nRiver Bank",
        "closingDate":"July 2, 2009"
    },
    {
        "lat":39.6297689,
        "lng":-90.4562355,
        "address":"Winchester,IL",
        "queryAddress":"Winchester,IL",
        "response":"OK",
        "name":"First State Bank of Winchester",
        "closingDate":"July 2, 2009"
    },
    {
        "lat":40.1536479,
        "lng":-88.9645253,
        "address":"Clinton,IL",
        "queryAddress":"Clinton,IL",
        "response":"OK",
        "name":"John\nWarner Bank",
        "closingDate":"July 2, 2009"
    },
    {
        "lat":34.0522342,
        "lng":-118.2436849,
        "address":"Los Angeles,CA",
        "queryAddress":"Los+Angeles,CA",
        "response":"OK",
        "name":"Mirae\nBank",
        "closingDate":"June 26, 2009"
    },
    {
        "lat":33.6694649,
        "lng":-117.8231107,
        "address":"Irvine,CA",
        "queryAddress":"Irvine,CA",
        "response":"OK",
        "name":"MetroPacific Bank",
        "closingDate":"June 26, 2009"
    },
    {
        "lat":45.834282,
        "lng":-92.970438,
        "address":"Pine City,MN",
        "queryAddress":"Pine+City,MN",
        "response":"OK",
        "name":"Horizon Bank",
        "closingDate":"June 26, 2009"
    },
    {
        "lat":33.3806716,
        "lng":-84.7996573,
        "address":"Newnan,GA",
        "queryAddress":"Newnan,GA",
        "response":"OK",
        "name":"Neighborhood Community Bank",
        "closingDate":"June 26, 2009"
    },
    {
        "lat":33.732052,
        "lng":-84.9191081,
        "address":"Villa Rica,GA",
        "queryAddress":"Villa+Rica,GA",
        "response":"OK",
        "name":"Community Bank of West Georgia",
        "closingDate":"June 26, 2009"
    },
    {
        "lat":37.1533554,
        "lng":-98.0311727,
        "address":"Anthony,KS",
        "queryAddress":"Anthony,KS",
        "response":"OK",
        "name":"First\nNational Bank of Anthony",
        "closingDate":"June 19, 2009"
    },
    {
        "lat":34.2257255,
        "lng":-77.9447102,
        "address":"Wilmington,NC",
        "queryAddress":"Wilmington,NC",
        "response":"OK",
        "name":"Cooperative Bank",
        "closingDate":"June 19, 2009"
    },
    {
        "lat":33.4487257,
        "lng":-84.4549262,
        "address":"Fayetteville,GA",
        "queryAddress":"Fayetteville,GA",
        "response":"OK",
        "name":"Southern\nCommunity Bank",
        "closingDate":"June 19, 2009"
    },
    {
        "lat":42.0044757,
        "lng":-87.7300594,
        "address":"Lincolnwood,IL",
        "queryAddress":"Lincolnwood,IL",
        "response":"OK",
        "name":"Bank of Lincolnwood",
        "closingDate":"June 5, 2009"
    },
    {
        "lat":40.4592076,
        "lng":-90.6717971,
        "address":"Macomb,IL",
        "queryAddress":"Macomb,IL",
        "response":"OK",
        "name":"Citizens National Bank",
        "closingDate":"May 22, 2009"
    },
    {
        "lat":40.1164204,
        "lng":-88.2433829,
        "address":"Champaign,IL",
        "queryAddress":"Champaign,IL",
        "response":"OK",
        "name":"Strategic Capital Bank",
        "closingDate":"May 22, 2009"
    },
    {
        "lat":25.72149,
        "lng":-80.2683838,
        "address":"Coral Gables,FL",
        "queryAddress":"Coral+Gables,FL",
        "response":"OK",
        "name":"BankUnited, FSB",
        "closingDate":"May 21, 2009"
    },
    {
        "lat":47.570017,
        "lng":-122.652625,
        "address":"Bremerton,WA",
        "queryAddress":"Bremerton,WA",
        "response":"OK",
        "name":"Westsound Bank",
        "closingDate":"May 8, 2009"
    },
    {
        "lat":41.0602216,
        "lng":-111.9710529,
        "address":"Layton,UT",
        "queryAddress":"Layton,UT",
        "response":"OK",
        "name":"America West Bank",
        "closingDate":"May 1, 2009"
    },
    {
        "lat":40.9792645,
        "lng":-74.1165313,
        "address":"Ridgewood,NJ",
        "queryAddress":"Ridgewood,NJ",
        "response":"OK",
        "name":"Citizens Community Bank",
        "closingDate":"May 1, 2009"
    },
    {
        "lat":33.7489954,
        "lng":-84.3879824,
        "address":"Atlanta,GA",
        "queryAddress":"Atlanta,GA",
        "response":"OK",
        "name":"Silverton Bank, NA",
        "closingDate":"May 1, 2009"
    },
    {
        "lat":43.6807402,
        "lng":-114.3636619,
        "address":"Ketchum,ID",
        "queryAddress":"Ketchum,ID",
        "response":"OK",
        "name":"First Bank of Idaho",
        "closingDate":"April 24, 2009"
    },
    {
        "lat":34.1383333,
        "lng":-118.6608333,
        "address":"Calabasas,CA",
        "queryAddress":"Calabasas,CA",
        "response":"OK",
        "name":"First Bank of Beverly Hills",
        "closingDate":"April 24, 2009"
    },
    {
        "lat":42.4853125,
        "lng":-83.3771553,
        "address":"Farmington Hills,MI",
        "queryAddress":"Farmington+Hills,MI",
        "response":"OK",
        "name":"Michigan Heritage Bank",
        "closingDate":"April 24, 2009"
    },
    {
        "lat":34.0234337,
        "lng":-84.6154897,
        "address":"Kennesaw,GA",
        "queryAddress":"Kennesaw,GA",
        "response":"OK",
        "name":"American Southern Bank",
        "closingDate":"April 24, 2009"
    },
    {
        "lat":40.8324211,
        "lng":-115.7631232,
        "address":"Elko,NV",
        "queryAddress":"Elko,NV",
        "response":"OK",
        "name":"Great Basin Bank of Nevada",
        "closingDate":"April 17, 2009"
    },
    {
        "lat":39.1097268,
        "lng":-94.4446742,
        "address":"Sugar Creek,MO",
        "queryAddress":"Sugar+Creek,MO",
        "response":"OK",
        "name":"American Sterling Bank",
        "closingDate":"April 17, 2009"
    },
    {
        "lat":40.4233142,
        "lng":-104.7091322,
        "address":"Greeley,CO",
        "queryAddress":"Greeley,CO",
        "response":"OK",
        "name":"New Frontier Bank",
        "closingDate":"April 10, 2009"
    },
    {
        "lat":34.2257255,
        "lng":-77.9447102,
        "address":"Wilmington,NC",
        "queryAddress":"Wilmington,NC",
        "response":"OK",
        "name":"Cape\nFear Bank",
        "closingDate":"April 10, 2009"
    },
    {
        "lat":33.7489954,
        "lng":-84.3879824,
        "address":"Atlanta,GA",
        "queryAddress":"Atlanta,GA",
        "response":"OK",
        "name":"Omni\nNational Bank",
        "closingDate":"March 27, 2009"
    },
    {
        "lat":38.5722353,
        "lng":-94.8791294,
        "address":"Paola,KS",
        "queryAddress":"Paola,KS",
        "response":"OK",
        "name":"TeamBank, NA",
        "closingDate":"March 20, 2009"
    },
    {
        "lat":38.8338816,
        "lng":-104.8213634,
        "address":"Colorado Springs,CO",
        "queryAddress":"Colorado+Springs,CO",
        "response":"OK",
        "name":"Colorado National Bank",
        "closingDate":"March 20, 2009"
    },
    {
        "lat":33.5442781,
        "lng":-84.2338093,
        "address":"Stockbridge,GA",
        "queryAddress":"Stockbridge,GA",
        "response":"OK",
        "name":"FirstCity Bank",
        "closingDate":"March 20, 2009"
    },
    {
        "lat":34.203997,
        "lng":-83.4571057,
        "address":"Commerce,GA",
        "queryAddress":"Commerce,GA",
        "response":"OK",
        "name":"Freedom Bank of Georgia",
        "closingDate":"March 6, 2009"
    },
    {
        "lat":36.033669,
        "lng":-115.002364,
        "address":"Henderson,NV",
        "queryAddress":"Henderson,NV",
        "response":"OK",
        "name":"Security Savings Bank",
        "closingDate":"February 27, 2009"
    },
    {
        "lat":41.5425349,
        "lng":-87.6022658,
        "address":"Glenwood,IL",
        "queryAddress":"Glenwood,IL",
        "response":"OK",
        "name":"Heritage Community Bank",
        "closingDate":"February 27, 2009"
    },
    {
        "lat":45.0051213,
        "lng":-122.7831455,
        "address":"Silverton,OR",
        "queryAddress":"Silverton,OR",
        "response":"OK",
        "name":"Silver Falls Bank",
        "closingDate":"February 20, 2009"
    },
    {
        "lat":45.487062,
        "lng":-122.8037102,
        "address":"Beaverton,OR",
        "queryAddress":"Beaverton,OR",
        "response":"OK",
        "name":"Pinnacle Bank of Oregon",
        "closingDate":"February 13, 2009"
    },
    {
        "lat":39.6078254,
        "lng":-90.8051289,
        "address":"Pittsfield,IL",
        "queryAddress":"Pittsfield,IL",
        "response":"OK",
        "name":"Corn\nBelt Bank & Trust Co.",
        "closingDate":"February 13, 2009"
    },
    {
        "lat":26.5628537,
        "lng":-81.9495331,
        "address":"Cape Coral,FL",
        "queryAddress":"Cape+Coral,FL",
        "response":"OK",
        "name":"Riverside Bank of the Gulf Coast",
        "closingDate":"February 13, 2009"
    },
    {
        "lat":41.275565,
        "lng":-98.9667532,
        "address":"Loup City,NE",
        "queryAddress":"Loup+City,NE",
        "response":"OK",
        "name":"Sherman County Bank",
        "closingDate":"February 13, 2009"
    },
    {
        "lat":37.3021632,
        "lng":-120.4829677,
        "address":"Merced,CA",
        "queryAddress":"Merced,CA",
        "response":"OK",
        "name":"County\nBank",
        "closingDate":"February 6, 2009"
    },
    {
        "lat":34.0211224,
        "lng":-118.3964665,
        "address":"Culver City,CA",
        "queryAddress":"Culver+City,CA",
        "response":"OK",
        "name":"Alliance Bank",
        "closingDate":"February 6, 2009"
    },
    {
        "lat":33.4473361,
        "lng":-84.1468616,
        "address":"McDonough,GA",
        "queryAddress":"McDonough,GA",
        "response":"OK",
        "name":"FirstBank Financial Services",
        "closingDate":"February 6, 2009"
    },
    {
        "lat":29.1871986,
        "lng":-82.1400923,
        "address":"Ocala,FL",
        "queryAddress":"Ocala,FL",
        "response":"OK",
        "name":"Ocala\nNational Bank",
        "closingDate":"January 30, 2009"
    },
    {
        "lat":39.0017772,
        "lng":-76.6874671,
        "address":"Crofton,MD",
        "queryAddress":"Crofton,MD",
        "response":"OK",
        "name":"Suburban FSB",
        "closingDate":"January 30, 2009"
    },
    {
        "lat":40.7607793,
        "lng":-111.8910474,
        "address":"Salt Lake City,UT",
        "queryAddress":"Salt+Lake+City,UT",
        "response":"OK",
        "name":"MagnetBank",
        "closingDate":"January 30, 2009"
    },
    {
        "lat":34.0555693,
        "lng":-117.1825381,
        "address":"Redlands,CA",
        "queryAddress":"Redlands,CA",
        "response":"OK",
        "name":"1st\nCentennial Bank",
        "closingDate":"January 23, 2009"
    },
    {
        "lat":45.6387281,
        "lng":-122.6614861,
        "address":"Vancouver,WA",
        "queryAddress":"Vancouver,WA",
        "response":"OK",
        "name":"Bank of\nClark County",
        "closingDate":"January 16, 2009"
    },
    {
        "lat":41.8889194,
        "lng":-87.9033956,
        "address":"Berkeley,IL",
        "queryAddress":"Berkeley,IL",
        "response":"OK",
        "name":"National Bank of Commerce",
        "closingDate":"January 16, 2009"
    },
    {
        "lat":30.1424083,
        "lng":-102.3940324,
        "address":"Sanderson,TX",
        "queryAddress":"Sanderson,TX",
        "response":"OK",
        "name":null,
        "closingDate":"December 12, 2008"
    },
    {
        "lat":34.0028786,
        "lng":-84.1446376,
        "address":"Duluth,GA",
        "queryAddress":"Duluth,GA",
        "response":"OK",
        "name":"Haven Trust Bank",
        "closingDate":"December 12, 2008"
    },
    {
        "lat":33.2945651,
        "lng":-83.9660209,
        "address":"Jackson,GA",
        "queryAddress":"Jackson,GA",
        "response":"OK",
        "name":"First\nGeorgia Community Bank",
        "closingDate":"December 5, 2008"
    },
    {
        "lat":34.06076,
        "lng":-117.755886,
        "address":"Pomona,CA",
        "queryAddress":"Pomona,CA",
        "response":"OK",
        "name":"PFF Bank\n& Trust",
        "closingDate":"November 21, 2008"
    },
    {
        "lat":33.6189101,
        "lng":-117.9289469,
        "address":"Newport Beach,CA",
        "queryAddress":"Newport+Beach,CA",
        "response":"OK",
        "name":"Downey\nSavings & Loan",
        "closingDate":"November 21, 2008"
    },
    {
        "lat":33.8389977,
        "lng":-83.9007382,
        "address":"Loganville,GA",
        "queryAddress":"Loganville,GA",
        "response":"OK",
        "name":"Community Bank",
        "closingDate":"November 21, 2008"
    },
    {
        "lat":34.0522342,
        "lng":-118.2436849,
        "address":"Los Angeles,CA",
        "queryAddress":"Los+Angeles,CA",
        "response":"OK",
        "name":"Security Pacific Bank",
        "closingDate":"November 7, 2008"
    },
    {
        "lat":29.7632836,
        "lng":-95.3632715,
        "address":"Houston,TX",
        "queryAddress":"Houston,TX",
        "response":"OK",
        "name":"Franklin Bank, SSB",
        "closingDate":"November 7, 2008"
    },
    {
        "lat":27.4989278,
        "lng":-82.5748194,
        "address":"Bradenton,FL",
        "queryAddress":"Bradenton,FL",
        "response":"OK",
        "name":"Freedom Bank",
        "closingDate":"October 31, 2008"
    },
    {
        "lat":34.0753762,
        "lng":-84.2940899,
        "address":"Alpharetta,GA",
        "queryAddress":"Alpharetta,GA",
        "response":"OK",
        "name":"Alpha\nBank & Trust",
        "closingDate":"October 24, 2008"
    },
    {
        "lat":39.2875475,
        "lng":-90.5523438,
        "address":"Eldred,IL",
        "queryAddress":"Eldred,IL",
        "response":"OK",
        "name":"Meridian Bank",
        "closingDate":"October 10, 2008"
    },
    {
        "lat":42.4311464,
        "lng":-83.4832692,
        "address":"Northville,MI",
        "queryAddress":"Northville,MI",
        "response":"OK",
        "name":"Main Street Bank",
        "closingDate":"October 10, 2008"
    },
    {
        "lat":36.033669,
        "lng":-115.002364,
        "address":"Henderson,NV",
        "queryAddress":"Henderson,NV",
        "response":"OK",
        "name":"\n (Including its subsidiary Washington Mutual Bank FSB)",
        "closingDate":"September 25, 2008"
    },
    {
        "lat":37.420948,
        "lng":-81.4401034,
        "address":"Northfork,WV",
        "queryAddress":"Northfork,WV",
        "response":"OK",
        "name":"Ameribank",
        "closingDate":"September 19, 2008"
    },
    {
        "lat":36.033669,
        "lng":-115.002364,
        "address":"Henderson,NV",
        "queryAddress":"Henderson,NV",
        "response":"OK",
        "name":null,
        "closingDate":"September 5, 2008"
    },
    {
        "lat":34.0753762,
        "lng":-84.2940899,
        "address":"Alpharetta,GA",
        "queryAddress":"Alpharetta,GA",
        "response":"OK",
        "name":"Integrity Bank",
        "closingDate":"August 29, 2008"
    },
    {
        "lat":39.0483336,
        "lng":-95.6780371,
        "address":"Topeka,KS",
        "queryAddress":"Topeka,KS",
        "response":"OK",
        "name":"Columbian Bank & Trust",
        "closingDate":"August 22, 2008"
    },
    {
        "lat":27.4989278,
        "lng":-82.5748194,
        "address":"Bradenton,FL",
        "queryAddress":"Bradenton,FL",
        "response":"OK",
        "name":"First Priority Bank",
        "closingDate":"August 1, 2008"
    },
    {
        "lat":33.6189101,
        "lng":-117.9289469,
        "address":"Newport Beach,CA",
        "queryAddress":"Newport+Beach,CA",
        "response":"OK",
        "name":"First\nHeritage Bank, NA",
        "closingDate":"July 25, 2008"
    },
    {
        "lat":39.5296329,
        "lng":-119.8138027,
        "address":"Reno,NV",
        "queryAddress":"Reno,NV",
        "response":"OK",
        "name":"First\nNational Bank of Nevada",
        "closingDate":"July 25, 2008"
    },
    {
        "lat":34.1477849,
        "lng":-118.1445155,
        "address":"Pasadena,CA",
        "queryAddress":"Pasadena,CA",
        "response":"OK",
        "name":"IndyMac Bank",
        "closingDate":"July 11, 2008"
    },
    {
        "lat":46.3547222,
        "lng":-94.7952777,
        "address":"Staples,MN",
        "queryAddress":"Staples,MN",
        "response":"OK",
        "name":"First Integrity Bank, NA",
        "closingDate":"May 30, 2008"
    },
    {
        "lat":36.3728538,
        "lng":-94.2088172,
        "address":"Bentonville,AR",
        "queryAddress":"Bentonville,AR",
        "response":"OK",
        "name":"ANB\nFinancial, NA",
        "closingDate":"May 9, 2008"
    },
    {
        "lat":38.0900314,
        "lng":-94.5838444,
        "address":"Hume,MO",
        "queryAddress":"Hume,MO",
        "response":"OK",
        "name":"Hume\nBank",
        "closingDate":"March 7, 2008"
    },
    {
        "lat":39.0997265,
        "lng":-94.5785667,
        "address":"Kansas City,MO",
        "queryAddress":"Kansas+City,MO",
        "response":"OK",
        "name":"Douglass National Bank",
        "closingDate":"January 25, 2008"
    },
    {
        "lat":40.9981113,
        "lng":-81.5234504,
        "address":"Lakeview,OH",
        "queryAddress":"Lakeview,OH",
        "response":"OK",
        "name":"Miami Valley Bank",
        "closingDate":"October 4, 2007"
    },
    {
        "lat":34.0753762,
        "lng":-84.2940899,
        "address":"Alpharetta,GA",
        "queryAddress":"Alpharetta,GA",
        "response":"OK",
        "name":"NetBank",
        "closingDate":"September 28, 2007"
    },
    {
        "lat":40.4406248,
        "lng":-79.9958864,
        "address":"Pittsburgh,PA",
        "queryAddress":"Pittsburgh,PA",
        "response":"OK",
        "name":"Metropolitan Savings Bank",
        "closingDate":"February 2, 2007"
    },
    {
        "lat":39.3596841,
        "lng":-111.5863052,
        "address":"Ephraim,UT",
        "queryAddress":"Ephraim,UT",
        "response":"OK",
        "name":"Bank\nof Ephraim",
        "closingDate":"June 25, 2004"
    },
    {
        "lat":41.0339862,
        "lng":-73.7629097,
        "address":"White Plains,NY",
        "queryAddress":"White+Plains,NY",
        "response":"OK",
        "name":"Reliance Bank",
        "closingDate":"March 19, 2004"
    },
    {
        "lat":30.4382559,
        "lng":-84.2807329,
        "address":"Tallahassee,FL",
        "queryAddress":"Tallahassee,FL",
        "response":"OK",
        "name":"\nof Tallahassee",
        "closingDate":"March 12, 2004"
    },
    {
        "lat":40.735657,
        "lng":-74.1723667,
        "address":"Newark,NJ",
        "queryAddress":"Newark,NJ",
        "response":"OK",
        "name":"Dollar\nSavings Bank",
        "closingDate":"February 14, 2004"
    },
    {
        "lat":39.952335,
        "lng":-75.163789,
        "address":"Philadelphia,PA",
        "queryAddress":"Philadelphia,PA",
        "response":"OK",
        "name":"Pulaski Savings Bank",
        "closingDate":"November 14, 2003"
    },
    {
        "lat":42.8102794,
        "lng":-89.8620682,
        "address":"Blanchardville,WI",
        "queryAddress":"Blanchardville,WI",
        "response":"OK",
        "name":"First National Bank of\nBlanchardville",
        "closingDate":"May 9, 2003"
    },
    {
        "lat":33.8358492,
        "lng":-118.3406288,
        "address":"Torrance,CA",
        "queryAddress":"Torrance,CA",
        "response":"OK",
        "name":"Southern Pacific Bank",
        "closingDate":"February 7, 2003"
    },
    {
        "lat":31.0149128,
        "lng":-92.2873521,
        "address":"Cheneyville,LA",
        "queryAddress":"Cheneyville,LA",
        "response":"OK",
        "name":"Farmers Bank of Cheneyville",
        "closingDate":"December 17, 2002"
    },
    {
        "lat":35.7847949,
        "lng":-89.1172883,
        "address":"Alamo,TN",
        "queryAddress":"Alamo,TN",
        "response":"OK",
        "name":"Bank of Alamo",
        "closingDate":"November 8, 2002"
    },
    {
        "lat":33.7489954,
        "lng":-84.3879824,
        "address":"Atlanta,GA",
        "queryAddress":"Atlanta,GA",
        "response":"OK",
        "name":null,
        "closingDate":"September 30, 2002"
    },
    {
        "lat":41.850033,
        "lng":-87.6500523,
        "address":"Chicago,IL",
        "queryAddress":"Chicago,IL",
        "response":"OK",
        "name":"Universal Federal Savings Bank",
        "closingDate":"June 27, 2002"
    },
    {
        "lat":41.0534302,
        "lng":-73.5387341,
        "address":"Stamford,CT",
        "queryAddress":"Stamford,CT",
        "response":"OK",
        "name":"Connecticut Bank of Commerce",
        "closingDate":"June 26, 2002"
    },
    {
        "lat":43.6086194,
        "lng":-86.3639633,
        "address":"Shelby Township,MI",
        "queryAddress":"Shelby+Township,MI",
        "response":"OK",
        "name":"New Century Bank",
        "closingDate":"March 28, 2002"
    },
    {
        "lat":26.3586885,
        "lng":-80.0830984,
        "address":"Boca Raton,FL",
        "queryAddress":"Boca+Raton,FL",
        "response":"OK",
        "name":"Net\n1st National Bank",
        "closingDate":"March 1, 2002"
    },
    {
        "lat":33.4483771,
        "lng":-112.0740373,
        "address":"Phoenix,AZ",
        "queryAddress":"Phoenix,AZ",
        "response":"OK",
        "name":"NextBank, NA",
        "closingDate":"February 7, 2002"
    },
    {
        "lat":41.3669444,
        "lng":-81.5038889,
        "address":"Oakwood,OH",
        "queryAddress":"Oakwood,OH",
        "response":"OK",
        "name":"Oakwood Deposit Bank Co.",
        "closingDate":"February 1, 2002"
    },
    {
        "lat":31.1745732,
        "lng":-105.3571764,
        "address":"Sierra Blanca,TX",
        "queryAddress":"Sierra+Blanca,TX",
        "response":"OK",
        "name":"Bank of Sierra Blanca",
        "closingDate":"January 18, 2002"
    },
    {
        "lat":25.7742657,
        "lng":-80.1936589,
        "address":"Miami,FL",
        "queryAddress":"Miami,FL",
        "response":"OK",
        "name":null,
        "closingDate":"January 11, 2002"
    },
    {
        "lat":36.4220207,
        "lng":-94.4535484,
        "address":"Gravette,AR",
        "queryAddress":"Gravette,AR",
        "response":"OK",
        "name":"Sinclair National Bank",
        "closingDate":"September 7, 2001"
    },
    {
        "lat":41.8008642,
        "lng":-87.9370052,
        "address":"Hinsdale,IL",
        "queryAddress":"Hinsdale,IL",
        "response":"OK",
        "name":"Superior Bank, FSB",
        "closingDate":"July 27, 2001"
    },
    {
        "lat":39.6492377,
        "lng":-81.8620804,
        "address":"Malta,OH",
        "queryAddress":"Malta,OH",
        "response":"OK",
        "name":"Malta\nNational Bank",
        "closingDate":"May 3, 2001"
    },
    {
        "lat":42.9956397,
        "lng":-71.4547891,
        "address":"Manchester,NH",
        "queryAddress":"Manchester,NH",
        "response":"OK",
        "name":"First Alliance Bank & Trust\nCo.",
        "closingDate":"February 2, 2001"
    },
    {
        "lat":37.1511655,
        "lng":-88.7319979,
        "address":"Metropolis,IL",
        "queryAddress":"Metropolis,IL",
        "response":"OK",
        "name":"National\nState Bank of Metropolis",
        "closingDate":"December 14, 2000"
    },
    {
        "lat":21.3069444,
        "lng":-157.8583333,
        "address":"Honolulu,HI",
        "queryAddress":"Honolulu,HI",
        "response":"OK",
        "name":"Bank of\nHonolulu",
        "closingDate":"October 13, 2000"
    }
]